[
  {
    "name": "FPT USA Headquarters",
    "address": "801 East Campbell Rd., Suite 525, Richardson, Texas 75081, USA",
    "lat": 32.9756,
    "lng": -96.7212,
    "size": 0.1
  },
  {
    "name": "FPT Automotive",
    "address": "2770 Main St, #108, Frisco, Texas 75033, USA",
    "lat": 33.1554,
    "lng": -96.8286,
    "size": 0.1
  },
  {
    "name": "FPT Los Angeles Office",
    "address": "801 Parkview Drive North, Suite 100, El Segundo, CA 90245, USA",
    "lat": 33.9203,
    "lng": -118.3917,
    "size": 0.1
  },
  {
    "name": "FPT Arizona Office",
    "address": "4505 E Chandler Blvd, Phoenix, AZ 85048, USA",
    "lat": 33.3058,
    "lng": -111.986,
    "size": 0.1
  },
  {
    "name": "FPT Washington Office",
    "address": "901 Powell Avenue SW, Suite 111, Renton, WA 98057, USA",
    "lat": 47.4746,
    "lng": -122.2221,
    "size": 0.1
  },
  {
    "name": "FPT Michigan Office",
    "address": "17197 N Laurel Park Dr, Suite 273, Livonia, MI 48152, USA",
    "lat": 42.4163,
    "lng": -83.416,
    "size": 0.1
  },
  {
    "name": "FPT New York Office",
    "address": "295 Madison Avenue, Suite 1808, New York, NY 10017, USA",
    "lat": 40.7527,
    "lng": -73.9792,
    "size": 0.1
  },
  {
    "name": "FPT Colorado Office",
    "address": "1380 Forest Park Cir #202, Lafayette, CO 80026, USA",
    "lat": 39.9869,
    "lng": -105.093,
    "size": 0.1
  },
  {
    "name": "FPT Georgia Office",
    "address": "2 Concourse Parkway, Suite 100, Atlanta, GA 30328, USA",
    "lat": 33.9087,
    "lng": -84.3565,
    "size": 0.1
  },
  {
    "name": "FPT Canada - Québec Office",
    "address": "242 Rue de Bayeux, Boucherville, QC J4B 7T9, Canada",
    "lat": 45.5753,
    "lng": -73.4296,
    "size": 0.1
  },
  {
    "name": "FPT Mexico - Guadalajara Office",
    "address": "Av Adolfo López Mateos Nte 95, Italia Providencia, 44648 Guadalajara, Jalisco, Mexico",
    "lat": 20.6936,
    "lng": -103.3918,
    "size": 0.1
  },
  {
    "name": "FPT Mexico - Mexico City Office",
    "address": "Presidente Masaryk 111, Col. Chapultepec Polanco, Mexico City, Mexico",
    "lat": 19.4333,
    "lng": -99.2,
    "size": 0.1
  },
  {
    "name": "FPT Costa Rica Office",
    "address": "San José, Sabana Norte Calle 56 Avenida Las Americas - Delivery Center",
    "lat": 9.936,
    "lng": -84.101,
    "size": 0.1
  },
  {
    "name": "FPT Colombia - Medellín Office",
    "address": "Cra 43a # 5a -113, One Plaza Business Center, Torre Sur, Piso 2, Oficina 212, Medellín, Antioquia, Colombia",
    "lat": 6.1968,
    "lng": -75.567,
    "size": 0.1
  },
  {
    "name": "FPT Colombia - Bogotá Office",
    "address": "Building QBO Parque 93, Cl. 93a #13-24, Localidad de Chapinero, Bogotá, Cundinamarca, Colombia",
    "lat": 4.6762,
    "lng": -74.047,
    "size": 0.1
  },
  {
    "name": "FPT Colombia - Barranquilla Office",
    "address": "Cl. 77b #57, Nte. Centro Historico, Barranquilla, Atlántico, Colombia",
    "lat": 10.993,
    "lng": -74.8099,
    "size": 0.1
  },
  {
    "name": "FPT Deutschland GmbH",
    "address": "Am Thyssenhaus 1-3 (Haus 3), 45128 Essen, Germany",
    "lat": 51.4428,
    "lng": 7.0043,
    "size": 0.1
  },
  {
    "name": "AOSIS Lyon",
    "address": "5 Rue de la Poulaillerie, 69002 Lyon, France",
    "lat": 45.764,
    "lng": 4.8348,
    "size": 0.1
  },
  {
    "name": "AOSIS Nantes",
    "address": "Virtual Office, Nantes, France",
    "lat": 47.2184,
    "lng": -1.5536,
    "size": 0.1
  },
  {
    "name": "FPT Software France - Sophia Antipolis",
    "address": "ECOPOLIS - Sophia Antipolis, 1300 Route des Crêtes, 06560 Valbonne, France",
    "lat": 43.6276,
    "lng": 7.0503,
    "size": 0.1
  },
  {
    "name": "AOSIS Nantes",
    "address": "Virtual Office, Nantes, France",
    "lat": 47.2184,
    "lng": -1.5536,
    "size": 0.1
  },
  {
    "name": "FPT Slovakia - Bratislava Office",
    "address": "Einsteinova 33, 851 01 Bratislava, Slovakia",
    "lat": 48.1306,
    "lng": 17.1046,
    "size": 0.1
  },
  {
    "name": "FPT Slovakia - Košice Office",
    "address": "Štúrova 27, 040 01 Košice, Slovakia",
    "lat": 48.7164,
    "lng": 21.2575,
    "size": 0.1
  },
  {
    "name": "FPT Romania - Bucharest Office",
    "address": "Strada George Constantinescu 2C, București 020339, Romania",
    "lat": 44.4818,
    "lng": 26.1276,
    "size": 0.1
  },
  {
    "name": "FPT Germany - Frankfurt Office",
    "address": "Unterschweinstiege 2-14, 60549 Frankfurt am Main, Germany",
    "lat": 50.0505,
    "lng": 8.5876,
    "size": 0.1
  },
  {
    "name": "FPT Germany - Munich Office",
    "address": "Leopoldstraße 244, 80807 München, Germany",
    "lat": 48.1795,
    "lng": 11.5865,
    "size": 0.1
  },
  {
    "name": "FPT United Kingdom - London Office",
    "address": "3rd Floor, 12 Bridewell Pl, London EC4V 6AP, United Kingdom",
    "lat": 51.5135,
    "lng": -0.1047,
    "size": 0.1
  },
  {
    "name": "FPT France Office",
    "address": "La Défense, Paris, Pháp",
    "lat": 48.8916,
    "lng": 2.2389,
    "size": 0.1
  },
  {
    "name": "FPT Software Europe SARL",
    "address": "Aeropole, Bat 1, 5 Avenue Albert Durand, 31700 Blagnac, France",
    "lat": 43.63622,
    "lng": 1.37564,
    "size": 0.1
  },
  {
    "name": "FPT Software Sverige AB",
    "address": "Uni3 by Geely Building, Pumpgatan 1, 417 55 Göteborg, Sweden",
    "lat": 57.7089,
    "lng": 11.9375,
    "size": 0.1
  },
  {
    "name": "FPT Saudi Arabia Office",
    "address": "The Esplanade, Prince Turki Bin Abdulaziz Al Awwal, King Saud University, Riyadh, 12371, Saudi Arabia",
    "lat": 24.7136,
    "lng": 46.6753,
    "size": 0.1
  },
  {
    "name": "FPT UAE Office",
    "address": "1405, Fortune Tower, Jumeirah Lakes Towers, Dubai, UAE",
    "lat": 25.0773,
    "lng": 55.1394,
    "size": 0.1
  },
  {
    "name": "FPT Software India Pvt. Ltd.",
    "address": "11th Floor, D – Block, ILabs Centre, Plot No: 18, Software Units Layout, Madhapur, Hyderabad – 500081, India",
    "lat": 17.4483,
    "lng": 78.3915,
    "size": 0.1
  },
  {
    "name": "FPT Myanmar",
    "address": "60/A Pyidaungzu Yeiktha Street, Dagon Township, Yangon, Myanmar",
    "lat": 16.7982,
    "lng": 96.1561,
    "size": 0.1
  },
  {
    "name": "FPT Software (Thailand) Limited",
    "address": "35th Floor, Tower A, The Ninth Tower, 33/4, Rama 9 Road, Huai Khwang District, Bangkok 10310, Thailand",
    "lat": 13.7563,
    "lng": 100.5652,
    "size": 0.1
  },
  {
    "name": "Hola Park F-Ville 1",
    "address": "Technology Villages 3 and 4, Software Area, Hoa Lac Hi-tech Park, Km 29, Thang Long Highway, Tan Xa commune, Thach That district, Hanoi, Vietnam",
    "lat": 21.0205,
    "lng": 105.5255,
    "phone": "+84 (24) 3368 7666 / +84 (24) 7304 4888",
    "email": "support@fpt.com"
  },
  {
    "name": "Hola Park F-Ville 2",
    "address": "Technology Villages 3 and 4, Software Area, Hoa Lac Hi-tech Park, Km 29, Thang Long Highway, Tan Xa commune, Thach That district, Hanoi, Vietnam",
    "lat": 21.0205,
    "lng": 105.5255,
    "phone": "+84 (24) 3368 3456",
    "email": "support@fpt.com"
  },
  {
    "name": "Hola Park F-Ville 3",
    "address": "Technology Villages 3 and 4, Software Area, Hoa Lac Hi-tech Park, Km 29, Thang Long Highway, Tan Xa commune, Thach That district, Hanoi, Vietnam",
    "lat": 21.0205,
    "lng": 105.5255,
    "phone": "+84 04 73044 888",
    "email": "support@fpt.com"
  },
  {
    "name": "FPT Software Hanoi Company Limited",
    "address": "FPT Cau Giay Building, Duy Tan Street, Dich Vong Hau Ward, Cau Giay District, Hanoi City, Vietnam",
    "lat": 21.0307,
    "lng": 105.7829
  },
  {
    "name": "FPT Software Hanoi Company Limited",
    "address": "FPT Tower, No.10 Pham Van Bach Street, Dich Vong Ward, Cau Giay District, Hanoi City, Vietnam",
    "lat": 21.0301,
    "lng": 105.7808
  },
  {
    "name": "FPT Software - Hue",
    "address": "5th floor, The Manor Crown Building, Xuan Phu Ward, Thua Thien Hue Province, Vietnam",
    "lat": 16.4637,
    "lng": 107.5909
  },
  {
    "name": "FPT Software Central Region Co., Ltd",
    "address": "FPT Complex Building, Nam Ky Khoi Nghia Street, Hoa Hai Ward, Ngu Hanh Son District, Danang City, Vietnam",
    "lat": 16.0018,
    "lng": 108.263,
    "phone": "+84 (023) 6395 8777 / +84 (023) 6395 2332",
    "email": "fsodn.contact@fpt.com"
  },
  {
    "name": "FPT Software Tam Ky",
    "address": "222 Huynh Thuc Khang Street, Tam Ky City, Quang Nam Province, Vietnam",
    "lat": 15.5736,
    "lng": 108.474
  },
  {
    "name": "FPT Software Quy Nhon (AI Valley)",
    "address": "FPT Software Building, 12 Science Avenue, Ghenh Rang ward, Quy Nhon city, Binh Dinh province",
    "lat": 13.7436,
    "lng": 109.2278
  },
  {
    "name": "FPT Software Nha Trang",
    "address": "02 To Huu, Phuoc Hai, Nha Trang, Khanh Hoa, Vietnam",
    "lat": 12.2451,
    "lng": 109.1928
  },
  {
    "name": "F-Town 1",
    "address": "F-Town Building, Lot T2, D1 Street, Saigon Hi-Tech Park, Tan Phu Ward, District 9, Ho Chi Minh City, Vietnam",
    "lat": 10.841,
    "lng": 106.8069,
    "phone": "+84 (28) 3736 2323",
    "email": "fhcm.contact@fpt.com"
  },
  {
    "name": "F-Town 2",
    "address": "F-Town Building, Lot T2, D1 Street, Saigon Hi-Tech Park, Tan Phu Ward, District 9, Ho Chi Minh City, Vietnam",
    "lat": 10.841,
    "lng": 106.8069,
    "phone": "+84 (28) 3736 2323",
    "email": "fhcm.contact@fpt.com"
  },
  {
    "name": "F-Town 3",
    "address": "F-Town Building, Lot T2, D1 Street, Saigon Hi-Tech Park, Tan Phu Ward, District 9, Ho Chi Minh City, Vietnam",
    "lat": 10.841,
    "lng": 106.8069,
    "phone": "+84 (28) 3736 2323",
    "email": "fhcm.contact@fpt.com"
  },
  {
    "name": "FPT Software Ho Chi Minh Co., Ltd. - Can Tho Branch",
    "address": "600 Nguyen Van Cu Street, An Binh Ward, Ninh Kieu District, Can Tho City",
    "lat": 10.028,
    "lng": 105.7446,
    "phone": "+84 (292) 390 79 79 / +84 (292) 390 79 80",
    "email": "fhcm.contact@fpt.com"
  },
  {
    "name": "FPT Can Tho",
    "address": "59-59A Phan Dinh Phung Street, Ninh Kieu District, Can Tho",
    "lat": 10.034,
    "lng": 105.781
  },
  {
    "name": "FPT Software Dalian",
    "address": "Room #07-06/08, 7F, No.1, Hui Xian Yuan, Dalian Hi-tech Industrial Zone, Dalian, 116025, China",
    "lat": 38.8744,
    "lng": 121.5319,
    "phone": "+86 411 3960 0895",
    "email": "support.china@fpt.com"
  },
  {
    "name": "Shanghai Office",
    "address": "16th Floor, Building 2, Global Creative Center, No.166 Minhong Road, Minhang District, Shanghai 201102, China",
    "lat": 31.1696,
    "lng": 121.3879,
    "phone": "+86 173 2129 1512",
    "email": "support.china@fpt.com"
  },
  {
    "name": "FPT Hong Kong",
    "address": "Room 1318-20, Hollywood Plaza, 610 Nathan Road, Mongkok, Kowloon, Hong Kong",
    "lat": 22.3206,
    "lng": 114.1699,
    "email": "LinhNP1@fpt.com"
  },
  {
    "name": "FPT Software Indonesia - Wisma MRA",
    "address": "Wisma MRA, 2nd Floor, Jl. TB Simatupang No. 19, Cilandak, Jakarta Selatan 12430, Indonesia",
    "lat": -6.2928,
    "lng": 106.7986,
    "phone": "+62 21 2765 1395",
    "email": "support@fpt.com"
  },
  {
    "name": "FPT Software Indonesia - Treasury Tower",
    "address": "Treasury Tower, 18th Floor, Unit K-L, District 8, SCBD Lot.28, Jl. Jend. Sudirman Kav. 52-53, Jakarta Selatan 12190, Indonesia",
    "lat": -6.2245,
    "lng": 106.8097,
    "phone": "+62 21 5010 6360",
    "email": "support@fpt.com"
  },
  {
    "name": "Tokyo Headquarter",
    "address": "33F, Sumitomo Fudosan Tokyo Mita Garden Tower, 3-5-19 Mita, Minato-ku, Tokyo 108-0073, Japan",
    "lat": 35.6484,
    "lng": 139.7486,
    "size": 0.1
  },
  {
    "name": "Tokyo Innovation Center",
    "address": "Sumitomo Real Estate Landmark Plaza 7F, Shibakoen 1-6-7, Minato-ku, Tokyo 105-0011, Japan",
    "lat": 35.6575,
    "lng": 139.7495,
    "size": 0.1
  },
  {
    "name": "Tokyo Intelligent Operation Center",
    "address": "KDX Hamamatsucho Place Building 6F, Shibakoen 1-7-6, Minato-ku, Tokyo 105-0011, Japan",
    "lat": 35.6578,
    "lng": 139.7498,
    "size": 0.1
  },
  {
    "name": "FPT Japan Training Center",
    "address": "Shibadaimon Building No. 2 7F, Shibadaimon 1-12-16, Minato-ku, Tokyo 105-0012, Japan",
    "lat": 35.6572,
    "lng": 139.7516,
    "size": 0.1
  },
  {
    "name": "FPT Japanese Language School",
    "address": "Higashinippori 4-3-5, Arakawa-ku, Tokyo 116-0014, Japan",
    "lat": 35.7333,
    "lng": 139.7798,
    "size": 0.1
  },
  {
    "name": "NAC Co., Ltd.",
    "address": "NBF Toranomon Building 3F, Nishishimbashi 1-6-21, Minato-ku, Tokyo 105-0003, Japan",
    "lat": 35.6695,
    "lng": 139.7514,
    "size": 0.1
  },
  {
    "name": "Osaka Office",
    "address": "JRE Dojima Tower Building 16F, Dojima 2-4-27, Kita-ku, Osaka-shi, Osaka 530-0003, Japan",
    "lat": 34.6983,
    "lng": 135.4949,
    "size": 0.1
  },
  {
    "name": "Nagoya Office",
    "address": "Nagoya Lucent Tower 11F, Ushijima-cho 6-1, Nishi-ku, Nagoya-shi, Aichi 451-0046, Japan",
    "lat": 35.1709,
    "lng": 136.8815,
    "size": 0.1
  },
  {
    "name": "Fukuoka Office",
    "address": "Daihakata Building 2F, Hakataekimae 2-20-1, Hakata-ku, Fukuoka-shi 812-0011, Japan",
    "lat": 33.5892,
    "lng": 130.419,
    "size": 0.1
  },
  {
    "name": "Fukuoka Development Center",
    "address": "Higashihie Business Center 7F, Higashihie 3-1-2, Hakata-ku, Fukuoka-shi, Fukuoka 812-0007, Japan",
    "lat": 33.5946,
    "lng": 130.428,
    "size": 0.1
  },
  {
    "name": "Hiroshima Office",
    "address": "Sankyo Hiroshima Building 7F, Komachi 3-25, Naka-ku, Hiroshima-shi, Hiroshima 730-0041, Japan",
    "lat": 34.3912,
    "lng": 132.4594,
    "size": 0.1
  },
  {
    "name": "Sapporo Office",
    "address": "Tokeidai Building 7F, Kita 1 Jou Nishi 2-1, Chuo-ku, Sapporo-shi, Hokkaido 060-0001, Japan",
    "lat": 43.0631,
    "lng": 141.3522,
    "size": 0.1
  },
  {
    "name": "FPT Nearshore Japan - Naha",
    "address": "Naha Chamber of Commerce and Industry Center 6F, Kume 2-2-10, Naha City, Okinawa Prefecture 900-0033, Japan",
    "lat": 26.215,
    "lng": 127.6792,
    "size": 0.1
  },
  {
    "name": "FPT Nearshore Japan - COI Naha",
    "address": "COI Naha Building 2F, Kume 2-3-15, Naha-shi, Okinawa-ken 900-0033, Japan",
    "lat": 26.2155,
    "lng": 127.6789,
    "size": 0.1
  },
  {
    "name": "Tochigi Innovation Hub",
    "address": "5F Big B Square, Higashijukugo 2-2-1, Utsunomiya City, Tochigi Prefecture 321-0953, Japan",
    "lat": 36.5551,
    "lng": 139.8828,
    "size": 0.1
  },
  {
    "name": "FPT Korea",
    "address": "7F, Sewoo Building, 115, Yeouigongwon-ro, Yeongdeungpo-gu, Seoul, South Korea",
    "lat": 37.5255,
    "lng": 126.925,
    "size": 0.1
  },
  {
    "name": "FPT Software Malaysia Sdn. Bhd.",
    "address": "Lot 21-04, Level 21, Menara Hap Seng 2, Plaza Hap Seng, No. 1, Jalan P. Ramlee, 50250 Kuala Lumpur, Malaysia",
    "lat": 3.1533,
    "lng": 101.7074,
    "size": 0.1
  },
  {
    "name": "FPT Software Malaysia Sdn. Bhd.",
    "address": "9th Floor, Menara Hapseng 3, Jalan P. Ramlee, Kuala Lumpur, Malaysia",
    "lat": 3.153,
    "lng": 101.7075,
    "size": 0.1
  },
  {
    "name": "FPT Manila Office",
    "address": "Suite A, Level 14, Robinsons Summit Center, 6783 Ayala Avenue, Makati City, Philippines 1226",
    "lat": 14.5576,
    "lng": 121.0223,
    "size": 0.1
  },
  {
    "name": "FPT Cebu Office",
    "address": "16th Floor, The Link Building, JM Del Mar Street, Cebu IT Park, Cebu City, Cebu, Philippines 6000",
    "lat": 10.3283,
    "lng": 123.9058,
    "size": 0.1
  },
  {
    "name": "FPT Singapore Office",
    "address": "8 Kallang Avenue, #12-09 Aperia Tower 1, Singapore 339509",
    "lat": 1.3102,
    "lng": 103.8622,
    "size": 0.1
  },
  {
    "name": "FPT Taiwan Co., Ltd",
    "address": "10F, No. 111, Sec. 2, Keelung Rd., Xinyi Dist., Taipei City 110606, Taiwan (R.O.C.)",
    "lat": 25.0305,
    "lng": 121.5673,
    "size": 0.1
  }
]